{
  "type": "FeatureCollection",
  "features": [
    {
      "type": "Feature",
      "properties": {
        "OBJECTID": 20,
        "ID": 19,
        "YEAR": 2008,
        "LENGTH__FT": 21,
        "LOCATION_D": "Center of Lynn St between Wall St and terminus at High St"
      },
      "geometry": {
        "type": "Point",
        "coordinates": [
          -83.00090299894761,
          39.96293444750077
        ]
      }
    },
    {
      "type": "Feature",
      "properties": {
        "OBJECTID": 21,
        "ID": 20,
        "YEAR": 2009,
        "LENGTH__FT": 156,
        "LOCATION_D": "East side of Front St between Vine St and Nationwide Blvd (Parallel Parking)"
      },
      "geometry": {
        "type": "Point",
        "coordinates": [
          -83.00440199848349,
          39.971193290336196
        ]
      }
    },
    {
      "type": "Feature",
      "properties": {
        "OBJECTID": 22,
        "ID": 21,
        "YEAR": 2009,
        "LENGTH__FT": 18,
        "LOCATION_D": "North side of Gay St between Fourth St and Arman Alley"
      },
      "geometry": {
        "type": "Point",
        "coordinates": [
          -82.99572807041892,
          39.964292303962715
        ]
      }
    },
    {
      "type": "Feature",
      "properties": {
        "OBJECTID": 23,
        "ID": 22,
        "YEAR": 2009,
        "LENGTH__FT": 0,
        "LOCATION_D": "Parking Garage on Front St between Rich St and Cherry St"
      },
      "geometry": {
        "type": "Point",
        "coordinates": [
          -83.00125955736914,
          39.956866190665224
        ]
      }
    },
    {
      "type": "Feature",
      "properties": {
        "OBJECTID": 24,
        "ID": 23,
        "YEAR": 2009,
        "LENGTH__FT": 22,
        "LOCATION_D": "East side of Ludlow St between Rich St and Town St"
      },
      "geometry": {
        "type": "Point",
        "coordinates": [
          -83.00247999033036,
          39.95832737921474
        ]
      }
    },
    {
      "type": "Feature",
      "properties": {
        "OBJECTID": 25,
        "ID": 24,
        "YEAR": 2010,
        "LENGTH__FT": 11,
        "LOCATION_D": "South side of Town St between Fifth St and Grant Ave"
      },
      "geometry": {
        "type": "Point",
        "coordinates": [
          -82.99171778316754,
          39.959650113404955
        ]
      }
    },
    {
      "type": "Feature",
      "properties": {
        "OBJECTID": 26,
        "ID": 25,
        "YEAR": 2010,
        "LENGTH__FT": 0,
        "LOCATION_D": "Parking Garage on Fourth St between Elm St and Gay St"
      },
      "geometry": {
        "type": "Point",
        "coordinates": [
          -82.99650314206899,
          39.9647344773585
        ]
      }
    },
    {
      "type": "Feature",
      "properties": {
        "OBJECTID": 27,
        "ID": 26,
        "YEAR": 2010,
        "LENGTH__FT": 27,
        "LOCATION_D": "North side of Eleventh Ave between High St and College St"
      },
      "geometry": {
        "type": "Point",
        "coordinates": [
          -83.0086741071707,
          39.99540221272394
        ]
      }
    },
    {
      "type": "Feature",
      "properties": {
        "OBJECTID": 28,
        "ID": 29,
        "YEAR": 2008,
        "LENGTH__FT": 14,
        "LOCATION_D": "North side of Fifteenth Ave between Pearl St and Indianola Ave"
      },
      "geometry": {
        "type": "Point",
        "coordinates": [
          -83.00417170893112,
          39.999921118756276
        ]
      }
    },
    {
      "type": "Feature",
      "properties": {
        "OBJECTID": 39,
        "ID": 39,
        "YEAR": 2016,
        "LENGTH__FT": 33,
        "LOCATION_D": "North side of Gay St between Normandy Ave and 6th St"
      },
      "geometry": {
        "type": "Point",
        "coordinates": [
          -82.99312956615262,
          39.964589322462686
        ]
      }
    },
    {
      "type": "Feature",
      "properties": {
        "OBJECTID": 29,
        "ID": 30,
        "YEAR": 2008,
        "LENGTH__FT": 16,
        "LOCATION_D": "South side of Fifteenth Ave between Pearl St and Indianola Ave"
      },
      "geometry": {
        "type": "Point",
        "coordinates": [
          -83.00670035002726,
          39.99988284024619
        ]
      }
    },
    {
      "type": "Feature",
      "properties": {
        "OBJECTID": 30,
        "ID": 27,
        "YEAR": 2008,
        "LENGTH__FT": 16,
        "LOCATION_D": "North side of Main St adjacent to Bicentennial Park"
      },
      "geometry": {
        "type": "Point",
        "coordinates": [
          -83.0030352684568,
          39.95562221613501
        ]
      }
    },
    {
      "type": "Feature",
      "properties": {
        "OBJECTID": 31,
        "ID": 28,
        "YEAR": 2008,
        "LENGTH__FT": 87,
        "LOCATION_D": "South side of Bollinger Pl between High St and Pearl St"
      },
      "geometry": {
        "type": "Point",
        "coordinates": [
          -83.00340717218748,
          39.977286633070065
        ]
      }
    },
    {
      "type": "Feature",
      "properties": {
        "OBJECTID": 32,
        "ID": 31,
        "YEAR": 2008,
        "LENGTH__FT": 44,
        "LOCATION_D": "South side of Rich St between Third St and High St"
      },
      "geometry": {
        "type": "Point",
        "coordinates": [
          -82.99841741077928,
          39.95751319187878
        ]
      }
    },
    {
      "type": "Feature",
      "properties": {
        "OBJECTID": 33,
        "ID": 32,
        "YEAR": 2013,
        "LENGTH__FT": 18,
        "LOCATION_D": "West side of Ludlow St between Nationwide Blvd and Locust St"
      },
      "geometry": {
        "type": "Point",
        "coordinates": [
          -83.00449134809172,
          39.968034836790615
        ]
      }
    },
    {
      "type": "Feature",
      "properties": {
        "OBJECTID": 34,
        "ID": 34,
        "YEAR": 2008,
        "LENGTH__FT": 21,
        "LOCATION_D": "Center of Cherry St between Wall St and High St"
      },
      "geometry": {
        "type": "Point",
        "coordinates": [
          -82.99998026706746,
          39.956722754640516
        ]
      }
    },
    {
      "type": "Feature",
      "properties": {
        "OBJECTID": 35,
        "ID": 35,
        "YEAR": 2008,
        "LENGTH__FT": 58,
        "LOCATION_D": "East side of Pearl St between Lynn St and Gay St (No Permit Required)"
      },
      "geometry": {
        "type": "Point",
        "coordinates": [
          -82.99992666751834,
          39.96336232970229
        ]
      }
    },
    {
      "type": "Feature",
      "properties": {
        "OBJECTID": 36,
        "ID": 33,
        "YEAR": 2014,
        "LENGTH__FT": 12,
        "LOCATION_D": "North side of Chestnut St between Pearl St and Third St"
      },
      "geometry": {
        "type": "Point",
        "coordinates": [
          -82.99905104056555,
          39.967936038202545
        ]
      }
    },
    {
      "type": "Feature",
      "properties": {
        "OBJECTID": 37,
        "ID": 37,
        "YEAR": 2014,
        "LENGTH__FT": 34,
        "LOCATION_D": "South side of Jack Gibbs Blvd between Cleveland Ave and I-670 Ramp"
      },
      "geometry": {
        "type": "Point",
        "coordinates": [
          -82.99010490988803,
          39.97226694226643
        ]
      }
    },
    {
      "type": "Feature",
      "properties": {
        "OBJECTID": 38,
        "ID": 38,
        "YEAR": 2014,
        "LENGTH__FT": 8,
        "LOCATION_D": "West side of High St between 2nd and Starr (In Parking Lot)"
      },
      "geometry": {
        "type": "Point",
        "coordinates": [
          -83.00491072507023,
          39.98241558582355
        ]
      }
    },
    {
      "type": "Feature",
      "properties": {
        "OBJECTID": 1,
        "ID": 10,
        "YEAR": 2008,
        "LENGTH__FT": 39,
        "LOCATION_D": "North side of Spruce St between Park St and Wall St"
      },
      "geometry": {
        "type": "Point",
        "coordinates": [
          -83.00335124540007,
          39.97234561747321
        ]
      }
    },
    {
      "type": "Feature",
      "properties": {
        "OBJECTID": 2,
        "ID": 2,
        "YEAR": 2008,
        "LENGTH__FT": 8,
        "LOCATION_D": "South side of Gay St between Pearl St and Third St"
      },
      "geometry": {
        "type": "Point",
        "coordinates": [
          -82.99986362487041,
          39.96368466847657
        ]
      }
    },
    {
      "type": "Feature",
      "properties": {
        "OBJECTID": 3,
        "ID": 1,
        "YEAR": 2008,
        "LENGTH__FT": 21,
        "LOCATION_D": "South side of Gay St between Front St and Wall St"
      },
      "geometry": {
        "type": "Point",
        "coordinates": [
          -83.00250552890618,
          39.963315313876464
        ]
      }
    },
    {
      "type": "Feature",
      "properties": {
        "OBJECTID": 4,
        "ID": 36,
        "YEAR": 2008,
        "LENGTH__FT": 11,
        "LOCATION_D": "South side of Gay St between Lazelle St and Fourth St"
      },
      "geometry": {
        "type": "Point",
        "coordinates": [
          -82.99683220399952,
          39.963995628077605
        ]
      }
    },
    {
      "type": "Feature",
      "properties": {
        "OBJECTID": 5,
        "ID": 12,
        "YEAR": 2008,
        "LENGTH__FT": 37,
        "LOCATION_D": "West side of High St between Buttles Ave and Hubbard Ave"
      },
      "geometry": {
        "type": "Point",
        "coordinates": [
          -83.00392131955851,
          39.978607270009896
        ]
      }
    },
    {
      "type": "Feature",
      "properties": {
        "OBJECTID": 6,
        "ID": 11,
        "YEAR": 2008,
        "LENGTH__FT": 60,
        "LOCATION_D": "West side of High St between Fourth Ave and Fifth Ave"
      },
      "geometry": {
        "type": "Point",
        "coordinates": [
          -83.00558983025445,
          39.986946639801296
        ]
      }
    },
    {
      "type": "Feature",
      "properties": {
        "OBJECTID": 7,
        "ID": 5,
        "YEAR": 2008,
        "LENGTH__FT": 19,
        "LOCATION_D": "West side of Pearl St between Gay St and Elm St"
      },
      "geometry": {
        "type": "Point",
        "coordinates": [
          -83.00009972337777,
          39.96379892877776
        ]
      }
    },
    {
      "type": "Feature",
      "properties": {
        "OBJECTID": 8,
        "ID": 3,
        "YEAR": 2008,
        "LENGTH__FT": 15,
        "LOCATION_D": "South side of Gay St between Pearl St and Third St"
      },
      "geometry": {
        "type": "Point",
        "coordinates": [
          -82.99848911616711,
          39.963837687243185
        ]
      }
    },
    {
      "type": "Feature",
      "properties": {
        "OBJECTID": 9,
        "ID": 4,
        "YEAR": 2008,
        "LENGTH__FT": 7,
        "LOCATION_D": "South side of Gay St between Third St and Lazelle St"
      },
      "geometry": {
        "type": "Point",
        "coordinates": [
          -82.99814376959571,
          39.96387623627224
        ]
      }
    },
    {
      "type": "Feature",
      "properties": {
        "OBJECTID": 10,
        "ID": 7,
        "YEAR": 2008,
        "LENGTH__FT": 33,
        "LOCATION_D": "West side of Front St between Frankfort St and Sycamore St"
      },
      "geometry": {
        "type": "Point",
        "coordinates": [
          -82.99979054731662,
          39.94852222158998
        ]
      }
    },
    {
      "type": "Feature",
      "properties": {
        "OBJECTID": 11,
        "ID": 8,
        "YEAR": 2008,
        "LENGTH__FT": 25,
        "LOCATION_D": "East side of Front St between Livingston Ave and Fulton St"
      },
      "geometry": {
        "type": "Point",
        "coordinates": [
          -83.0005622924887,
          39.9529799044221
        ]
      }
    },
    {
      "type": "Feature",
      "properties": {
        "OBJECTID": 12,
        "ID": 9,
        "YEAR": 2008,
        "LENGTH__FT": 27,
        "LOCATION_D": "South side of Fulton St between Front St and High St"
      },
      "geometry": {
        "type": "Point",
        "coordinates": [
          -83.00051424956077,
          39.953277320000396
        ]
      }
    },
    {
      "type": "Feature",
      "properties": {
        "OBJECTID": 13,
        "ID": 6,
        "YEAR": 2008,
        "LENGTH__FT": 25,
        "LOCATION_D": "Center of Lynn St between Pearl and High St"
      },
      "geometry": {
        "type": "Point",
        "coordinates": [
          -83.00041855715847,
          39.96298446598536
        ]
      }
    },
    {
      "type": "Feature",
      "properties": {
        "OBJECTID": 14,
        "ID": 13,
        "YEAR": 2008,
        "LENGTH__FT": 27,
        "LOCATION_D": "West side of Park St between Goodale St and Buttles Ave"
      },
      "geometry": {
        "type": "Point",
        "coordinates": [
          -83.00490122520839,
          39.975473193200344
        ]
      }
    },
    {
      "type": "Feature",
      "properties": {
        "OBJECTID": 15,
        "ID": 14,
        "YEAR": 2008,
        "LENGTH__FT": 40,
        "LOCATION_D": "West side of Park St between Spruce St and Goodale St"
      },
      "geometry": {
        "type": "Point",
        "coordinates": [
          -83.00469117395065,
          39.97225649266439
        ]
      }
    },
    {
      "type": "Feature",
      "properties": {
        "OBJECTID": 16,
        "ID": 15,
        "YEAR": 2008,
        "LENGTH__FT": 45,
        "LOCATION_D": "East side of Park St between Vine St and Spruce St"
      },
      "geometry": {
        "type": "Point",
        "coordinates": [
          -83.00455865680509,
          39.971901216980704
        ]
      }
    },
    {
      "type": "Feature",
      "properties": {
        "OBJECTID": 17,
        "ID": 16,
        "YEAR": 2008,
        "LENGTH__FT": 108,
        "LOCATION_D": "Both sides of Elm St between Wall St and terminus at High St"
      },
      "geometry": {
        "type": "Point",
        "coordinates": [
          -83.00133972109904,
          39.96424868544741
        ]
      }
    },
    {
      "type": "Feature",
      "properties": {
        "OBJECTID": 18,
        "ID": 17,
        "YEAR": 2008,
        "LENGTH__FT": 37,
        "LOCATION_D": "North side of Lynn St between Fourth St and Young St"
      },
      "geometry": {
        "type": "Point",
        "coordinates": [
          -82.99588231218188,
          39.96357493404291
        ]
      }
    }
  ]
}